{
"type": "FeatureCollection",
"name": "Water_Pumps",
"crs": { "type": "name", "properties": { "name": "urn:ogc:def:crs:EPSG::32630" } },
"features": [
{ "type": "Feature", "properties": { "OBJECTID": 1, "Name": "43 Broadwick Street", "City": "London", "PostCode": "W1F 9" }, "geometry": { "type": "Point", "coordinates": [ 698670.82120000012219, 5710795.930099999532 ] } },
{ "type": "Feature", "properties": { "OBJECTID": 2, "Name": "1 Great Titchfield Street", "City": "London", "PostCode": "W1W 8" }, "geometry": { "type": "Point", "coordinates": [ 698465.865799999795854, 5711112.877599999309 ] } },
{ "type": "Feature", "properties": { "OBJECTID": 3, "Name": "10 Ramillies Place", "City": "London", "PostCode": "W1F 7" }, "geometry": { "type": "Point", "coordinates": [ 698455.036600000225008, 5710961.9843 ] } },
{ "type": "Feature", "properties": { "OBJECTID": 4, "Name": "2 Berners Street", "City": "London", "PostCode": "W1D 1" }, "geometry": { "type": "Point", "coordinates": [ 698717.026499999687076, 5711100.6673 ] } },
{ "type": "Feature", "properties": { "OBJECTID": 5, "Name": "1 Newman Street", "City": "London", "PostCode": "W1D 1" }, "geometry": { "type": "Point", "coordinates": [ 698801.094100000336766, 5711120.4866 ] } },
{ "type": "Feature", "properties": { "OBJECTID": 6, "Name": "1 Carnaby Street", "City": "London", "PostCode": "W1F 7" }, "geometry": { "type": "Point", "coordinates": [ 698473.527300000190735, 5710842.0997 ] } },
{ "type": "Feature", "properties": { "OBJECTID": 7, "Name": "11 Warwick Street", "City": "London", "PostCode": "W1B 5" }, "geometry": { "type": "Point", "coordinates": [ 698580.425099999643862, 5710565.616599999368 ] } },
{ "type": "Feature", "properties": { "OBJECTID": 8, "Name": "9 Vigo Street", "City": "London", "PostCode": "W1S 3" }, "geometry": { "type": "Point", "coordinates": [ 698486.220099999569356, 5710439.841299999505 ] } },
{ "type": "Feature", "properties": { "OBJECTID": 9, "Name": "20 A4", "City": "London", "PostCode": "W1J 9" }, "geometry": { "type": "Point", "coordinates": [ 698865.2324, 5710444.793199999258 ] } },
{ "type": "Feature", "properties": { "OBJECTID": 10, "Name": "52 Rupert Street", "City": "London", "PostCode": "W1D 7" }, "geometry": { "type": "Point", "coordinates": [ 698890.547500000335276, 5710683.303899999708 ] } },
{ "type": "Feature", "properties": { "OBJECTID": 11, "Name": "54 Dean Street", "City": "London", "PostCode": "W1D 5" }, "geometry": { "type": "Point", "coordinates": [ 699029.03110000025481, 5710702.32699999958 ] } },
{ "type": "Feature", "properties": { "OBJECTID": 12, "Name": "36 Bridle Lane", "City": "London", "PostCode": "W1F 9" }, "geometry": { "type": "Point", "coordinates": [ 698739.464399999939, 5710589.505799999461 ] } }
]
}
